City_ID,City,Cloudiness,Country,Date,Humidity,Lat,Lng,Max Temp,Wind Speed
0,hofn,100,IS,1556231613,98,64.25,-15.21,36.96,4.97
1,rikitea,93,PF,1556231613,80,-23.12,-134.97,78.33,10.63
2,surt,20,LY,1556231614,50,31.21,16.59,72.4,10.96
3,atuona,4,PF,1556231615,73,-9.8,-139.03,83.51,15.61
4,eenhana,29,NA,1556229600,33,-17.48,16.34,77.0,2.24
5,hermanus,46,ZA,1556231497,91,-34.42,19.24,63.0,4.94
6,bredasdorp,58,ZA,1556231497,93,-34.53,20.04,63.0,1.12
7,punta arenas,0,CL,1556230989,87,-53.16,-70.91,44.6,8.05
8,victoria,90,BN,1556229600,94,5.28,115.24,78.8,3.36
9,jamestown,24,AU,1556231522,63,-33.21,138.6,61.87,10.74
10,norman wells,40,CA,1556229600,77,65.28,-126.83,32.0,14.99
11,dawson creek,20,CA,1556229600,15,55.76,-120.23,48.2,16.11
12,kodiak,1,US,1556231601,13,39.95,-94.76,68.0,18.34
13,kieta,60,PG,1556231622,69,-6.22,155.63,86.25,7.74
14,bluff,75,AU,1556231623,75,-23.58,149.07,76.0,13.24
15,katsuura,75,JP,1556231439,88,33.93,134.5,64.99,5.82
16,pedernales,94,EC,1556231624,81,0.07,-80.05,80.79,8.5
17,port alfred,0,ZA,1556231539,89,-33.59,26.89,62.01,1.99
18,aklavik,5,CA,1556229600,38,68.22,-135.01,26.6,3.04
19,arlit,65,NE,1556231625,17,18.74,7.39,93.1,12.46
20,waddan,11,LY,1556231626,9,29.16,16.14,89.5,11.86
21,nanortalik,47,GL,1556231344,77,60.14,-45.24,32.27,1.92
22,bonavista,100,CA,1556231426,87,48.65,-53.11,32.0,29.04
23,burnie,68,AU,1556231584,84,-41.05,145.91,50.0,4.0
24,kavaratti,35,IN,1556231627,75,10.57,72.64,84.37,9.35
25,salto del guaira,87,PY,1556231627,85,-24.06,-54.31,74.4,1.83
26,huarmey,68,PE,1556231630,90,-10.07,-78.15,69.69,18.39
27,manta,13,RO,1556231631,88,45.1,24.1,51.92,4.05
28,kologriv,19,RU,1556231631,90,58.83,44.31,33.85,4.16
29,san quintin,0,PH,1556231632,62,17.54,120.52,87.02,3.24
30,tuktoyaktuk,20,CA,1556229600,92,69.44,-133.03,15.8,6.93
31,port elizabeth,1,US,1556231626,55,39.31,-74.98,69.8,8.05
32,avarua,100,CK,1556229600,74,-21.21,-159.78,78.8,19.46
33,mogadishu,27,SO,1556231358,71,2.04,45.34,83.75,14.03
34,smirnykh,0,RU,1556231633,67,49.74,142.83,36.51,3.85
35,castro,75,CL,1556229600,81,-42.48,-73.76,53.6,8.05
36,rio gallegos,0,AR,1556229600,71,-51.62,-69.22,50.0,4.7
37,fukuma,75,JP,1556231634,87,33.77,130.47,62.01,4.7
38,lebu,20,ET,1556229600,54,8.96,38.73,59.0,3.36
39,hasaki,75,JP,1556231041,93,35.73,140.83,52.0,17.22
40,chapais,90,CA,1556229600,75,49.78,-74.86,41.0,14.99
41,maxixe,0,MZ,1556231639,98,-23.86,35.35,70.84,1.07
42,cape town,0,ZA,1556231164,93,-33.93,18.42,61.0,6.93
43,bereda,40,ES,1556231638,87,43.27,-7.54,54.0,10.29
44,mataura,26,NZ,1556231408,66,-46.19,168.86,55.99,1.01
45,muros,75,ES,1556231602,100,42.77,-9.06,55.99,8.05
46,ahipara,89,NZ,1556231564,100,-35.17,173.16,68.0,11.27
47,port hedland,0,AU,1556229600,52,-20.31,118.58,68.0,5.82
48,ushuaia,0,AR,1556229600,91,-54.81,-68.31,53.6,19.46
49,cabo san lucas,5,MX,1556231521,21,22.89,-109.91,90.0,2.24
50,lavrentiya,0,RU,1556231645,88,65.58,-170.99,21.55,5.93
51,yellowknife,75,CA,1556231568,67,62.45,-114.38,23.0,13.87
52,ocos,75,GT,1556229600,62,14.51,-92.19,89.6,10.45
53,kletskaya,5,RU,1556231592,83,49.31,43.06,45.0,6.33
54,dikson,92,RU,1556231646,98,73.51,80.55,-0.9,7.29
55,saint-gaudens,75,FR,1556231561,57,43.11,0.72,52.0,13.87
56,lund,6,SE,1556231526,93,55.7,13.19,53.01,4.7
57,beyneu,1,KZ,1556231647,68,45.32,55.19,52.53,7.38
58,santiago del estero,46,AR,1556231648,86,-27.8,-64.26,64.23,2.73
59,elko,20,US,1556231521,27,40.83,-115.76,75.2,11.41
60,hilo,90,US,1556231604,83,19.71,-155.08,77.0,3.36
61,comodoro rivadavia,0,AR,1556229600,87,-45.87,-67.48,55.4,14.12
62,east london,0,ZA,1556231650,89,-33.02,27.91,58.42,3.85
63,port-cartier,90,CA,1556231614,86,50.03,-66.88,33.01,8.05
64,izhma,28,RU,1556231650,81,65.01,53.91,23.91,4.79
65,ilulissat,75,GL,1556229000,72,69.22,-51.1,12.2,2.24
66,hobyo,91,SO,1556231651,75,5.35,48.53,82.68,15.03
67,knittelfeld,64,AT,1556231527,55,47.21,14.83,61.0,6.55
68,cherskiy,2,RU,1556231652,91,68.75,161.3,32.07,7.54
69,fort myers beach,1,US,1556231446,57,26.45,-81.95,84.0,10.29
70,albany,75,US,1556231551,34,42.65,-73.75,66.99,3.91
71,pozzallo,40,IT,1556231641,87,44.81,9.34,60.01,3.36
72,busselton,0,AU,1556231461,54,-33.64,115.35,57.0,19.06
73,chuy,75,UY,1556231561,75,-33.69,-53.46,67.11,21.65
74,olinda,75,EC,1556231534,70,-2.03,-79.75,84.99,4.7
75,mayo,75,CA,1556229600,47,63.59,-135.9,37.4,5.82
76,saint simons,1,US,1556231455,57,31.14,-81.39,84.2,12.75
77,hengyang,98,CN,1556231663,72,26.89,112.6,79.46,3.4
78,barrow,100,AR,1556231665,69,-38.31,-60.23,54.98,10.4
79,pangnirtung,75,CA,1556229600,53,66.15,-65.72,23.0,19.46
80,saskylakh,34,RU,1556231666,92,71.97,114.09,-6.42,5.1
81,rosetown,66,CA,1556231488,17,51.55,-107.99,53.01,3.0
82,novobirilyussy,87,RU,1556231667,84,56.95,90.69,43.26,9.44
83,georgetown,75,GY,1556229600,88,6.8,-58.16,80.6,6.93
84,isangel,40,VU,1556229600,74,-19.55,169.27,82.4,12.53
85,gizo,0,IL,1556231650,72,31.8,34.94,68.0,4.7
86,malanje,100,AO,1556231669,97,-9.54,16.35,67.96,1.28
87,xichang,80,CN,1556231669,70,27.88,102.25,53.92,2.24
88,nador,19,MA,1556229600,72,35.17,-2.93,62.6,12.75
89,pavlodar,0,KZ,1556229600,93,52.28,76.96,41.0,11.18
90,tabuk,66,PH,1556231670,83,17.41,121.44,73.83,1.57
91,tasiilaq,100,GL,1556231671,86,65.61,-37.64,36.93,5.32
92,wattegama,100,LK,1556231671,88,7.35,80.68,73.81,1.88
93,aizawl,0,IN,1556231671,65,23.74,92.72,73.9,2.46
94,morales,100,CO,1556231672,72,8.28,-73.87,82.9,2.55
95,tiksi,24,RU,1556231672,86,71.64,128.87,9.69,7.36
96,salalah,0,OM,1556229000,65,17.01,54.1,80.6,2.24
97,vaini,47,IN,1556231673,92,15.34,74.49,75.75,2.66
98,pangkalanbuun,87,ID,1556231673,84,-2.68,111.62,79.05,2.64
99,matara,100,PE,1556231674,87,-13.74,-72.9,41.46,4.29
100,pisco,0,PE,1556230585,30,-13.71,-76.2,73.0,20.8
101,butaritari,71,KI,1556231674,81,3.07,172.79,83.4,16.06
102,hithadhoo,85,MV,1556231675,79,-0.6,73.08,84.7,13.35
103,gigmoto,39,PH,1556231675,69,13.78,124.39,81.94,6.62
104,ribeira grande,4,PT,1556231676,68,38.52,-28.7,60.0,7.74
105,kapaa,1,US,1556231014,61,22.08,-159.32,80.6,9.17
106,acapulco,5,MX,1556228580,69,16.86,-99.88,82.4,10.29
107,lata,0,IN,1556231677,64,30.78,78.62,26.14,11.59
108,saint-philippe,1,CA,1556231630,57,45.36,-73.48,55.99,9.17
109,mount isa,96,AU,1556229600,64,-20.73,139.49,69.8,8.05
110,yershichi,37,RU,1556231678,60,53.67,32.75,52.46,4.07
111,igarka,100,RU,1556231681,86,67.47,86.57,-1.0,14.2
112,buckeye,1,US,1556231680,10,33.37,-112.58,100.99,8.05
113,nikolskoye,0,RU,1556231520,52,59.7,30.79,46.99,4.47
114,los llanos de aridane,39,ES,1556231455,63,28.66,-17.92,66.2,6.93
115,gunupur,47,IN,1556231682,82,19.07,83.81,78.49,1.95
116,zhigansk,0,RU,1556231683,81,66.77,123.37,16.48,6.64
117,tuatapere,34,NZ,1556231408,66,-46.13,167.69,55.99,1.01
118,shanghai,75,CN,1556231605,82,31.23,121.49,64.0,6.71
119,saint george,40,GR,1556231016,100,39.45,22.34,60.01,1.25
120,marystown,100,CA,1556230980,100,47.17,-55.16,41.0,1.01
121,barinas,100,VE,1556231684,71,8.64,-70.23,77.89,2.8
122,ayr,40,GB,1556231588,93,55.46,-4.63,48.2,4.7
123,high level,75,CA,1556229600,51,58.52,-117.13,39.2,9.17
124,flinders,0,AU,1556231647,42,-34.58,150.85,72.0,23.04
125,mar del plata,42,AR,1556231685,61,-46.43,-67.52,58.56,8.77
126,macae,40,BR,1556229600,78,-22.37,-41.79,78.8,4.7
127,sitka,0,US,1556231409,33,37.17,-99.65,72.0,13.0
128,bethel,1,US,1556229360,48,60.79,-161.76,41.0,14.99
129,goroka,73,PG,1556231687,61,-6.07,145.39,73.68,1.39
130,sterling,90,US,1556231655,40,39.0,-77.4,75.0,4.7
131,ust-kuyga,98,RU,1556231688,85,70.0,135.55,20.02,10.09
132,chokurdakh,27,RU,1556231688,90,70.62,147.9,24.51,9.1
133,nemuro,100,JP,1556231688,79,43.32,145.57,33.76,18.97
134,torbay,90,CA,1556231559,92,47.66,-52.73,33.01,19.46
135,kondinskoye,61,RU,1556231692,85,59.65,67.41,22.2,10.09
136,oktyabrskiy,95,RU,1556231434,41,55.61,37.97,63.0,2.26
137,avera,1,US,1556231637,44,33.19,-82.53,84.2,9.17
138,megalopoli,75,GR,1556231138,76,37.4,22.14,66.99,3.89
139,zuenoula,100,CI,1556231696,86,7.43,-6.04,77.03,4.56
140,ponta do sol,7,BR,1556231696,94,-20.63,-46.0,66.77,3.89
141,tame,96,CO,1556231697,99,6.46,-71.72,56.49,2.35
142,leshukonskoye,100,RU,1556231697,86,64.9,45.76,27.4,3.49
143,ridgecrest,20,US,1556231658,12,35.62,-117.67,93.2,5.82
144,puerto ayora,20,EC,1556231450,74,-0.74,-90.35,84.2,13.87
145,aykhal,0,RU,1556227800,50,65.95,111.51,8.6,4.47
146,cidreira,100,BR,1556231699,87,-30.17,-50.22,72.26,13.67
147,tayoltita,99,MX,1556231699,26,24.11,-105.93,77.37,5.75
148,labuhan,59,ID,1556231699,87,-2.54,115.51,79.01,0.45
149,laibin,45,CN,1556231700,82,23.74,109.23,76.8,5.7
150,abonnema,40,NG,1556226000,94,4.71,6.79,78.8,4.63
151,marsh harbour,97,BS,1556231700,72,26.54,-77.06,76.38,9.91
152,bambous virieux,75,MU,1556231640,73,-20.34,57.76,77.0,13.87
153,hamilton,75,BM,1556230591,73,32.3,-64.78,71.6,12.75
154,kruisfontein,3,ZA,1556231701,94,-34.0,24.73,57.59,5.5
155,saint-joseph,90,FR,1556231505,87,43.56,6.97,59.0,2.24
156,geraldton,40,CA,1556229600,61,49.72,-86.95,55.4,8.05
157,okhotsk,0,RU,1556231702,43,59.36,143.24,40.04,13.38
158,havre-saint-pierre,90,CA,1556230320,86,50.23,-63.6,30.2,5.82
159,mahebourg,75,MU,1556231640,73,-20.41,57.7,77.0,13.87
160,qaanaaq,99,GL,1556231703,98,77.48,-69.36,5.61,3.24
161,sidi ali,0,DZ,1556231703,78,36.1,0.42,63.37,16.24
162,sao felix do xingu,89,BR,1556231704,97,-6.64,-51.99,72.94,2.98
163,itaituba,20,BR,1556226000,74,-4.26,-55.99,86.0,4.7
164,arman,14,RU,1556231704,65,59.7,150.17,30.68,10.07
165,padang,40,ID,1556229600,100,-0.92,100.36,77.0,3.36
166,longyearbyen,90,NO,1556229000,92,78.22,15.63,30.2,3.36
167,faya,9,SA,1556229600,67,18.39,42.45,62.6,5.82
168,peruibe,31,BR,1556231706,99,-24.32,-47.0,72.22,1.16
169,dakar,0,SN,1556229600,88,14.69,-17.45,73.4,6.93
170,maragogi,100,BR,1556231707,92,-9.01,-35.22,75.82,3.36
171,husavik,73,CA,1556231684,66,50.56,-96.99,45.0,14.0
172,north las vegas,1,US,1556231129,10,36.2,-115.11,93.2,12.75
173,narsaq,20,GL,1556229000,47,60.91,-46.05,33.8,9.17
174,maniitsoq,0,GL,1556231534,73,65.42,-52.9,16.41,8.75
175,jalna,14,IN,1556231708,20,19.84,75.88,88.41,19.62
176,saint augustine,20,TT,1556231707,78,10.65,-61.4,84.0,14.99
177,pevek,41,RU,1556231709,81,69.7,170.27,23.61,10.22
178,kavieng,98,PG,1556231713,73,-2.57,150.8,84.01,6.96
179,lafiagi,99,NG,1556231714,59,8.85,5.42,87.78,9.78
180,fortuna,20,ES,1556231690,51,38.18,-1.13,64.4,3.36
181,touros,75,BR,1556229600,100,-5.2,-35.46,75.2,2.24
182,los andes,0,CL,1556231425,63,-32.83,-70.6,66.99,10.29
183,upernavik,80,GL,1556231715,88,72.79,-56.15,6.96,7.0
184,batticaloa,100,LK,1556231690,93,7.71,81.69,75.23,3.89
185,luanda,20,AO,1556229600,83,-8.83,13.24,78.8,8.05
186,moron,98,VE,1556231716,88,10.49,-68.2,77.46,3.56
187,arraial do cabo,20,BR,1556229600,83,-22.97,-42.02,78.8,12.44
188,poum,0,MK,1556231717,64,41.28,20.71,50.5,3.49
189,dolores,100,AR,1556231718,83,-36.31,-57.68,56.53,9.89
190,new norfolk,40,AU,1556231534,61,-42.78,147.06,48.99,11.41
191,mikhaylovka,100,RU,1556231718,52,52.96,103.29,46.66,13.8
192,seoul,90,KR,1556230800,93,37.57,126.98,48.2,3.36
193,khatanga,100,RU,1556231719,92,71.98,102.47,6.15,15.55
194,kupino,42,RU,1556231719,70,54.36,77.31,33.45,15.55
195,san patricio,91,PY,1556231720,87,-26.98,-56.83,75.12,4.85
196,moba,94,CD,1556231720,90,-7.04,29.77,60.72,4.25
197,bluefields,86,NI,1556229600,70,12.01,-83.77,84.2,4.7
198,fairbanks,20,US,1556231534,28,64.84,-147.72,48.99,5.39
199,moranbah,93,AU,1556231721,74,-22.0,148.04,75.46,10.11
200,beian,0,NO,1556231716,44,63.66,9.57,59.0,11.41
201,zaysan,88,KZ,1556231716,59,47.47,84.87,39.81,8.21
202,thompson,90,CA,1556229600,31,55.74,-97.86,33.8,5.82
203,xuddur,63,SO,1556231726,73,4.12,43.89,79.89,14.61
204,kenai,1,US,1556231224,29,60.55,-151.26,48.2,13.87
205,paamiut,0,GL,1556231726,64,61.99,-49.67,25.46,44.4
206,chuzhou,65,CN,1556231727,64,32.25,118.33,49.87,10.6
207,coahuayana,0,MX,1556231727,8,18.62,-100.35,98.97,4.25
208,buala,59,SB,1556231727,77,-8.15,159.59,84.45,7.61
209,bagotville,90,AU,1556231482,93,-28.98,153.42,68.0,6.93
210,vila velha,0,BR,1556230098,78,-3.71,-38.6,80.6,8.05
211,broken hill,0,AU,1556229600,81,-31.97,141.45,51.8,4.7
212,carnarvon,0,ZA,1556231737,40,-30.97,22.13,57.37,1.74
213,calvinia,0,ZA,1556231738,66,-31.47,19.78,56.47,1.72
214,mount gambier,98,AU,1556229600,66,-37.83,140.78,51.8,12.75
215,paramaribo,0,SR,1556231112,66,5.82,-55.18,84.2,9.17
216,apolda,0,DE,1556231720,45,51.02,11.51,66.0,3.36
217,sabya,13,YE,1556231739,69,16.19,43.1,85.26,11.41
218,beringovskiy,55,RU,1556231739,84,63.05,179.32,32.55,8.03
219,san pedro de ycuamandiyu,92,PY,1556231740,92,-24.09,-57.08,75.9,3.47
220,waverly,1,US,1556231734,57,37.04,-77.1,82.4,5.19
221,mokhsogollokh,100,RU,1556231740,79,61.4,128.95,40.11,5.19
222,ayan,48,TR,1556231741,86,40.67,33.6,40.02,1.41
223,biskamzha,60,RU,1556231741,74,53.45,89.53,38.85,18.45
224,marawi,100,PH,1556231493,83,8.0,124.29,79.0,5.01
225,belomorsk,81,RU,1556231742,81,64.52,34.76,39.32,5.28
226,bismarck,1,US,1556231460,20,46.81,-100.78,55.99,27.51
227,constitucion,75,MX,1556231417,8,23.99,-104.67,73.99,3.36
228,saldanha,34,PT,1556231742,90,41.42,-6.55,44.14,7.76
229,imbituba,75,BR,1556229600,88,-28.24,-48.67,75.2,5.82
230,tazovskiy,49,RU,1556231743,95,67.47,78.7,-10.38,7.58
231,goma,100,CD,1556231743,98,-1.67,29.23,57.7,2.66
232,kloulklubed,90,PW,1556229000,94,7.04,134.26,77.0,5.82
233,zirandaro,1,MX,1556231744,11,18.45,-100.98,100.05,8.21
234,laguna,20,MX,1556228580,19,27.52,-110.01,95.0,9.17
235,kainouryion,20,GR,1556231698,67,38.6,21.5,62.6,8.05
236,alofi,86,NU,1556229600,83,-19.06,-169.92,82.4,14.99
237,kiunga,100,PG,1556231745,84,-6.12,141.3,82.74,2.26
238,guerrero negro,0,MX,1556231745,78,27.97,-114.04,64.07,13.96
239,formosa do rio preto,12,BR,1556231746,77,-11.04,-45.19,71.85,2.57
240,bilibino,74,RU,1556231746,87,68.06,166.44,23.1,6.02
241,provideniya,75,RU,1556229600,68,64.42,-173.23,24.8,6.71
242,nha trang,20,VN,1556229600,78,12.24,109.19,78.8,5.82
243,kroya,58,ID,1556231747,69,-6.5,108.06,79.66,4.36
244,blagoyevo,40,RU,1556231747,91,63.37,47.92,23.26,5.41
245,palmira,40,CO,1556229600,35,3.53,-76.3,102.2,14.99
246,lasa,0,CY,1556231464,87,34.92,32.53,62.6,3.36
247,airai,42,TL,1556231748,60,-8.93,125.41,81.66,4.76
248,entre rios,23,BR,1556231748,96,-11.94,-38.08,71.31,4.05
249,hobart,40,AU,1556231594,61,-42.88,147.33,48.99,11.41
250,dongli,34,CN,1556229600,88,24.18,117.61,75.2,8.95
251,morondava,59,MG,1556231750,81,-20.3,44.28,81.21,2.48
252,vaasa,0,FI,1556231474,56,63.1,21.62,44.6,2.24
253,ayagoz,1,KZ,1556231750,74,47.96,80.43,38.98,10.56
254,khani,0,GE,1556229600,93,41.96,42.96,44.6,5.82
255,burgeo,98,CA,1556231751,86,47.61,-57.61,37.34,25.43
256,kalmunai,100,LK,1556231751,93,7.42,81.82,75.23,3.89
257,belyy yar,0,RU,1556229600,70,53.6,91.39,42.8,13.42
258,lompoc,1,US,1556231737,72,34.64,-120.46,73.0,12.75
259,axim,100,GH,1556231752,81,4.87,-2.24,80.76,4.23
260,dingle,63,PH,1556231752,60,11.0,122.67,83.04,10.92
261,honiara,20,SB,1556229600,74,-9.43,159.96,87.8,5.82
262,souillac,0,FR,1556231746,87,45.6,-0.6,48.99,9.17
263,shimoda,75,JP,1556229960,93,34.7,138.93,66.2,1.12
264,ljungby,52,SE,1556231448,81,56.83,13.94,52.0,4.7
265,vao,100,EE,1556231754,53,59.1,26.19,53.18,4.74
266,port lincoln,83,AU,1556231754,71,-34.72,135.86,60.06,19.57
267,necochea,100,AR,1556231484,77,-38.55,-58.74,57.0,3.0
268,montrose,75,AU,1556231703,93,-37.81,145.34,57.0,16.11
269,atherton,44,GB,1556231723,81,53.52,-2.49,48.99,3.36
270,te anau,89,NZ,1556231758,86,-45.41,167.72,48.1,5.86
271,linxia,54,CN,1556231489,36,35.6,103.21,56.71,1.63
272,basse,0,DE,1556231529,45,52.55,9.51,66.2,6.93
273,puerto escondido,5,MX,1556228700,66,15.86,-97.07,84.2,11.41
274,nishihara,90,JP,1556231704,93,35.74,139.53,59.0,6.93
275,ulaangom,8,MN,1556231763,46,49.98,92.07,43.12,5.68
276,adrar,0,DZ,1556229600,16,27.87,-0.29,75.2,4.7
277,dirba,14,NG,1556231763,5,10.1,13.23,88.68,8.43
278,clyde river,75,CA,1556229600,84,70.47,-68.59,3.2,23.04
279,mozarlandia,70,BR,1556231764,68,-14.74,-50.57,77.39,2.48
280,warrnambool,100,AU,1556231528,60,-38.38,142.48,57.0,10.0
281,chabahar,0,IR,1556229000,56,25.29,60.65,73.4,6.64
282,erice,0,IT,1556231570,93,38.04,12.59,68.0,4.7
283,koila,100,EE,1556231765,60,59.46,26.72,49.98,5.55
284,buraydah,40,SA,1556229600,37,26.33,43.97,68.0,3.36
285,kamaishi,100,JP,1556231766,96,39.28,141.86,37.38,7.4
286,berdigestyakh,64,RU,1556231766,82,62.1,126.7,38.29,4.72
287,kaduqli,48,SD,1556231766,9,11.01,29.72,85.08,4.63
288,mahon,75,IE,1556231620,100,51.89,-8.4,50.0,5.82
289,gubkinskiy,83,RU,1556231767,93,64.43,76.5,4.04,8.5
290,mackenzie,20,CA,1556229600,38,55.34,-123.09,42.8,6.93
291,teeli,2,RU,1556231768,43,51.01,90.2,37.59,8.59
292,kemin,100,KG,1556231768,87,42.79,75.7,29.06,3.67
293,kimparana,57,ML,1556231768,34,12.83,-4.92,95.05,0.36
294,faanui,100,PF,1556231769,79,-16.48,-151.75,83.08,15.37
295,bato,47,PH,1556231769,70,13.36,123.37,80.49,3.8
296,nemencine,67,LT,1556231525,54,54.85,25.48,60.01,8.05
297,waynesville,20,US,1556231761,77,37.83,-92.2,68.0,8.05
298,diego de almagro,0,CL,1556231770,68,-26.39,-70.05,60.4,2.44
299,pecos,1,US,1556231528,19,31.42,-103.49,89.01,8.05
300,gondanglegi,45,ID,1556231771,84,-7.75,112.01,77.61,5.01
301,sompeta,46,IN,1556231771,76,18.93,84.6,80.16,6.73
302,arys,90,KZ,1556229600,87,42.43,68.8,46.4,2.24
303,lourdes,20,SV,1556229000,59,13.73,-89.37,89.6,8.05
304,mut,37,TR,1556231772,51,36.64,33.44,51.58,3.89
305,shache,11,CN,1556231773,33,38.42,77.24,63.94,15.5
306,vila franca do campo,75,PT,1556231723,67,37.72,-25.43,57.2,4.7
307,berlevag,0,NO,1556229000,89,70.86,29.09,35.6,3.36
308,myitkyina,14,MM,1556231774,64,25.38,97.4,70.62,3.51
309,kaitangata,26,NZ,1556231692,52,-46.28,169.85,57.99,3.0
310,severo-kurilsk,99,RU,1556231775,87,50.68,156.12,31.31,24.23
311,nelson bay,0,AU,1556231535,72,-32.72,152.14,72.0,8.05
312,oil city,90,US,1556231775,100,41.43,-79.71,62.01,5.82
313,banda aceh,100,ID,1556231775,68,5.56,95.32,84.36,4.21
314,vredendal,0,ZA,1556231776,95,-31.68,18.49,60.99,11.41
315,port blair,100,IN,1556231776,72,11.67,92.75,85.81,4.88
316,quang ngai,33,VN,1556231777,54,15.12,108.8,81.3,1.3
317,gorontalo,100,ID,1556231777,71,0.54,123.06,84.12,2.3
318,aritao,8,PH,1556231777,66,16.3,121.03,74.42,3.04
319,iraquara,75,BR,1556226000,69,-12.24,-41.62,78.8,2.24
320,nome,40,US,1556231727,51,30.04,-94.42,82.99,6.93
321,muli,0,IN,1556231778,59,22.62,71.45,81.15,10.6
322,caravelas,2,BR,1556231671,84,-17.73,-39.27,78.31,4.94
323,victoria point,75,AU,1556231770,82,-27.58,153.3,73.99,11.41
324,opuwo,0,NA,1556231779,38,-18.06,13.84,65.44,1.07
325,ginir,32,ET,1556231779,70,7.14,40.71,61.57,5.84
326,logansport,90,US,1556231709,100,40.75,-86.36,62.01,5.82
327,bitlis,0,TR,1556231780,65,38.4,42.11,32.17,6.31
328,zaraza,100,VE,1556231780,66,9.35,-65.33,83.2,7.99
329,hami,26,CN,1556231781,30,42.84,93.51,65.91,19.04
330,rayadrug,99,IN,1556231781,77,14.7,76.87,78.45,9.89
331,corsicana,1,US,1556231768,44,32.09,-96.46,82.99,10.29
332,leningradskiy,55,RU,1556231781,75,69.38,178.42,28.18,5.77
333,waingapu,24,ID,1556231782,78,-9.65,120.26,79.66,12.06
334,cururupu,100,BR,1556231782,99,-1.82,-44.87,75.34,1.34
335,hernani,40,ES,1556231705,66,43.27,-1.98,57.0,5.82
336,asifabad,50,IN,1556231785,28,19.38,79.29,91.39,7.96
337,heishan,61,CN,1556231785,25,41.69,122.12,52.69,15.55
338,aksu,0,KZ,1556229600,93,52.04,76.93,41.0,11.18
339,whitianga,87,NZ,1556231711,75,-36.83,175.7,68.0,8.99
340,codrington,90,AU,1556231482,93,-28.95,153.24,68.0,6.93
341,belmonte,93,PT,1556231435,92,40.36,-7.35,46.99,5.99
342,kotri,0,PK,1556231787,32,25.36,68.31,86.84,12.44
343,camacha,20,PT,1556229600,63,33.08,-16.33,62.6,8.05
344,shenjiamen,82,CN,1556231643,86,29.96,122.3,59.03,7.38
345,shelburne,1,CA,1556231498,65,44.08,-80.2,61.0,17.22
346,rio grande,90,BR,1556228700,93,-32.03,-52.1,66.2,9.17
347,dunedin,6,NZ,1556231569,62,-45.87,170.5,61.0,15.01
348,bridlington,32,GB,1556231766,93,54.08,-0.19,48.0,3.36
349,cloquet,40,US,1556231780,14,46.72,-92.46,69.8,13.87
350,atbasar,100,KZ,1556231792,74,51.81,68.36,37.75,4.61
351,kokstad,0,ZA,1556231792,74,-30.55,29.42,47.01,4.65
352,monopoli,90,IT,1556231773,100,40.95,17.3,63.0,12.75
353,el alto,75,BO,1556229600,58,-16.5,-68.19,55.4,9.17
354,witu,20,KE,1556229360,79,-2.39,40.44,84.2,6.93
355,cuamba,98,MZ,1556231794,85,-14.8,36.54,67.0,5.55
356,college,20,US,1556231755,28,64.86,-147.8,48.99,5.39
357,ermoupolis,100,GR,1556231692,72,37.44,24.94,63.0,2.24
358,ranong,20,TH,1556226000,94,9.96,98.62,78.8,5.41
359,camargo,0,MX,1556231795,11,27.69,-105.17,83.56,4.29
360,tekeli,95,KZ,1556231796,61,44.86,78.76,44.72,7.78
361,tranas,1,SE,1556231528,75,58.04,14.98,46.99,3.36
362,taoudenni,0,ML,1556231799,12,22.68,-3.98,82.23,5.84
363,vardo,90,US,1556231584,63,39.62,-77.74,72.0,5.82
364,madanapalle,87,IN,1556231800,62,13.56,78.5,75.81,4.72
365,morgan city,40,US,1556231757,78,29.7,-91.21,78.8,12.75
366,iqaluit,75,CA,1556231565,73,63.75,-68.52,24.8,13.87
367,pushkino,0,RU,1556231434,44,56.01,37.85,63.0,4.47
368,ust-uda,100,RU,1556231801,59,54.17,103.03,44.0,7.94
369,wuchang,1,CN,1556231801,39,44.93,127.16,50.66,7.34
370,diamantino,45,BR,1556231801,73,-14.4,-56.44,77.61,2.84
371,podgornaya,0,RU,1556231802,80,44.22,41.29,45.39,5.1
372,suzhou,33,CN,1556231802,51,33.65,116.96,51.04,10.85
373,bouna,79,CI,1556231693,59,9.27,-3.0,84.81,4.68
374,pemba,100,MZ,1556231802,82,-12.97,40.52,82.43,26.17
375,port-gentil,75,GA,1556229600,94,-0.72,8.78,80.6,6.93
376,vanimo,100,PG,1556231803,72,-2.67,141.3,84.19,6.6
377,vallenar,4,CL,1556231803,59,-28.58,-70.76,62.61,2.77
378,sao borja,90,BR,1556231804,86,-28.66,-56.0,75.43,5.61
379,shubarkuduk,34,KZ,1556231807,73,49.15,56.49,50.55,8.19
380,cayenne,20,GF,1556229600,83,4.94,-52.33,80.6,6.93
381,esperance,20,TT,1556231707,78,10.24,-61.45,84.0,14.99
382,mindelo,75,PT,1556231763,82,41.31,-8.72,55.4,10.29
383,kitgum,51,UG,1556231809,81,3.3,32.88,69.24,3.09
384,sioux lookout,90,CA,1556230380,40,50.1,-91.92,59.0,11.41
385,aguimes,20,ES,1556231128,52,27.91,-15.45,68.0,16.11
386,wajima,100,JP,1556231810,82,37.4,136.9,51.51,21.09
387,richards bay,56,ZA,1556231811,81,-28.77,32.06,73.65,11.65
388,karpathos,91,GR,1556229000,77,35.51,27.21,62.6,4.7
389,cabedelo,20,BR,1556229600,88,-6.97,-34.84,78.8,4.7
390,mandalgovi,51,MN,1556231812,56,45.76,106.27,36.26,15.73
391,bowen,40,AU,1556231790,94,-20.01,148.25,80.01,6.98
392,khor,3,RU,1556231813,34,47.88,134.96,47.78,7.61
393,kidal,50,ML,1556231813,19,18.44,1.41,93.12,7.36
394,ponta delgada,75,PT,1556231783,67,37.73,-25.67,57.2,4.7
395,orange,4,AU,1556231415,63,-33.28,149.1,68.0,12.44
396,araci,31,BR,1556231814,91,-11.34,-38.96,72.6,6.02
397,waipawa,1,NZ,1556231416,67,-39.94,176.59,68.0,1.01
398,wuda,93,CN,1556231815,26,39.5,106.72,50.73,15.39
399,pacific grove,20,US,1556231814,72,36.62,-121.92,87.01,9.17
400,coquimbo,0,CL,1556229600,82,-29.95,-71.34,59.0,11.41
401,pasni,0,PK,1556231816,36,25.26,63.48,80.88,5.75
402,pokhara,1,NP,1556231816,33,28.21,83.99,52.77,4.99
403,zeya,30,RU,1556231817,31,53.74,127.27,44.49,4.63
404,ati,14,TD,1556231817,3,13.21,18.34,84.73,11.86
405,ancud,75,CL,1556229600,81,-41.87,-73.83,53.6,8.05
406,cleveland,90,US,1556231775,51,41.51,-81.69,62.6,3.36
407,nawa,0,IN,1556231818,20,27.02,75.0,84.64,5.23
408,sao francisco do sul,75,BR,1556229600,94,-26.24,-48.64,75.2,1.12
409,liberty,75,US,1556231615,100,39.64,-84.93,70.0,5.82
410,sechura,0,PE,1556231599,84,-5.56,-80.82,72.75,17.2
411,portland,90,US,1556231709,31,45.52,-122.67,75.99,12.75
412,troy,75,US,1556231758,34,42.73,-73.69,66.99,3.91
413,san jose,15,PH,1556231821,52,15.79,120.99,85.27,8.81
414,lichuan,7,CN,1556231821,75,30.3,108.94,71.07,4.61
415,solnechnyy,0,RU,1556231821,54,50.72,136.64,43.44,3.67
416,baiyin,2,CN,1556229600,52,36.55,104.13,44.6,6.71
417,matagami,38,NG,1556231822,51,9.67,8.4,79.51,2.01
418,sao joao da barra,0,BR,1556229600,83,-21.64,-41.05,75.2,2.24
419,weligama,100,LK,1556231823,76,5.97,80.42,83.02,8.63
420,luderitz,0,NA,1556229600,93,-26.65,15.16,55.4,5.82
421,ostrovnoy,100,RU,1556231823,93,68.05,39.51,34.37,11.52
422,bahia honda,0,CU,1556231824,68,22.9,-83.16,83.31,1.92
423,colac,97,AU,1556231528,77,-38.34,143.59,53.01,3.0
424,hambantota,90,LK,1556226600,100,6.12,81.12,77.0,3.36
425,turukhansk,100,RU,1556231825,80,65.8,87.96,8.58,16.62
426,lavumisa,38,ZA,1556231825,96,-27.31,31.88,62.63,3.04
427,samarai,99,PG,1556231826,91,-10.62,150.67,80.85,4.52
428,braganca paulista,75,BR,1556231502,88,-22.95,-46.54,77.0,4.7
429,caohai,100,CN,1556231826,68,26.87,104.28,60.38,6.49
430,san francisco,40,US,1556231711,67,37.78,-122.42,82.0,23.04
431,yar-sale,64,RU,1556231828,97,66.83,70.83,-0.28,7.27
432,nampula,90,MZ,1556229600,100,-15.12,39.26,71.6,11.41
433,vilhena,20,BR,1556229600,78,-12.74,-60.15,80.6,3.36
434,smithers,75,CA,1556229600,42,54.78,-127.17,44.6,3.36
435,north bend,1,US,1556231493,71,43.41,-124.22,72.0,11.41
436,takoradi,92,GH,1556231830,85,4.89,-1.75,79.05,2.82
437,la macarena,100,CO,1556231830,95,2.18,-73.79,74.56,2.21
438,karratha,0,AU,1556231830,20,-20.74,116.85,82.65,20.56
439,areia branca,40,BR,1556229600,65,-10.76,-37.31,82.4,8.05
440,lazarev,0,RU,1556231831,66,52.23,141.51,37.18,9.57
441,itarema,100,BR,1556231832,95,-2.92,-39.92,74.47,5.84
442,san luis,95,AR,1556231535,77,-33.3,-66.34,63.0,15.21
443,washington,75,US,1556231550,43,38.9,-77.04,75.0,5.53
444,barra do garcas,0,BR,1556226000,62,-15.89,-52.26,86.0,5.82
445,kupang,20,ID,1556229600,69,-10.16,123.6,77.0,8.05
446,qaqortoq,20,GL,1556229000,47,60.72,-46.03,33.8,9.17
447,umm lajj,3,SA,1556231834,64,25.02,37.27,78.33,3.29
448,syracuse,40,US,1556231596,31,43.05,-76.15,66.99,5.48
449,taltal,0,CL,1556231835,77,-25.41,-70.49,63.96,6.17
450,ampanihy,35,MG,1556231836,65,-24.69,44.75,76.78,7.63
451,haines junction,33,CA,1556231836,29,60.75,-137.51,32.28,4.68
452,monrovia,75,LR,1556229600,88,6.33,-10.8,80.6,8.12
453,igrim,3,RU,1556231837,97,63.19,64.42,9.94,3.22
454,mehamn,0,NO,1556229000,93,71.03,27.85,37.4,3.36
455,boone,40,US,1556231611,55,36.22,-81.67,72.0,9.17
456,talcahuano,75,CL,1556226000,59,-36.72,-73.12,62.6,9.17
457,conakry,0,GN,1556226000,83,9.52,-13.7,80.6,2.24
458,vanderhoof,41,CA,1556231775,24,54.02,-124.02,50.37,4.41
459,zhezkazgan,84,KZ,1556231838,47,47.8,67.71,46.97,13.47
460,parabel,68,RU,1556231839,85,58.71,81.5,24.88,6.46
461,pozo colorado,86,PY,1556231839,92,-23.49,-58.8,76.02,3.8
462,inuvik,20,CA,1556229600,45,68.36,-133.71,26.6,3.36
463,bahia blanca,100,AR,1556231840,58,-38.72,-62.27,61.86,13.31
464,fandriana,54,MG,1556231840,98,-20.24,47.38,59.98,2.71
465,wewak,100,PG,1556231840,73,-3.55,143.63,83.56,4.61
466,ukiah,1,US,1556231729,16,39.15,-123.21,91.4,6.93
467,nesna,0,NO,1556231424,60,66.2,13.02,45.0,1.12
468,fare,100,PF,1556231845,81,-16.7,-151.02,82.43,17.58
469,egvekinot,97,RU,1556231706,88,66.32,-179.17,20.42,8.1
470,hopelchen,5,MX,1556228400,59,19.77,-89.85,91.4,11.41
471,vastseliina,100,EE,1556229600,57,57.73,27.29,51.8,3.58
472,cabcaben,20,PH,1556231583,74,14.45,120.59,84.99,4.7
473,omboue,100,GA,1556231846,82,-1.57,9.26,83.08,10.94
474,rafraf,20,TN,1556229600,87,37.19,10.18,60.8,3.36
475,beloha,30,MG,1556231847,74,-25.17,45.06,74.11,6.91
476,qingdao,90,CN,1556229600,75,36.09,120.35,44.6,20.13
477,mitu,0,IR,1556231847,63,36.2,46.09,35.7,4.14
478,kuching,75,MY,1556229600,100,1.56,110.34,77.0,2.24
479,marzuq,0,YE,1556231848,21,14.4,46.47,69.94,1.41
480,soure,40,PT,1556231809,82,40.06,-8.63,55.4,11.41
481,jeremie,16,HT,1556231848,71,18.65,-74.12,79.46,1.88
482,shenzhen,0,CN,1556231681,94,22.54,114.05,82.0,6.71
483,terrace,75,CA,1556229600,34,54.52,-128.61,51.8,6.93
484,margate,40,AU,1556231834,61,-43.03,147.26,48.99,11.41
485,mercedes,100,UY,1556231850,87,-33.25,-58.03,64.95,21.18
486,lokosovo,100,RU,1556231850,93,61.13,74.84,6.49,8.75
487,mecca,0,SA,1556231583,56,21.43,39.83,84.03,5.23
488,sao joao do piaui,63,BR,1556231851,60,-8.36,-42.25,74.53,2.66
489,san juan,20,PH,1556231583,74,14.6,121.03,84.99,4.7
490,galdar,20,ES,1556231128,52,28.15,-15.65,68.0,16.11
491,bambanglipuro,59,ID,1556231852,79,-7.95,110.28,81.96,10.49
492,partizanske,45,SK,1556231838,52,48.63,18.38,66.2,16.11
493,aitape,100,PG,1556231853,65,-3.15,142.36,85.8,5.28
494,morant bay,20,JM,1556229600,65,17.88,-76.41,82.4,20.8
495,the valley,40,AI,1556231464,65,18.22,-63.06,80.6,9.17
496,namibe,0,AO,1556231854,77,-15.19,12.15,70.93,12.97
497,valladolid,48,ES,1556231485,81,41.65,-4.73,45.0,1.01
498,kayes,0,ML,1556226000,16,14.44,-11.44,100.4,5.82
499,algiers,1,US,1556231813,83,29.94,-90.04,78.8,4.7
500,tongchuan,1,CN,1556229600,93,34.9,108.95,51.8,6.71
501,sumbe,100,AO,1556231856,86,-11.2,13.84,78.83,9.01
502,sola,0,FI,1556231826,66,62.78,29.36,48.2,4.7
503,raudeberg,97,NO,1556231704,81,61.99,5.14,53.01,8.05
504,sibolga,98,ID,1556231857,77,1.74,98.78,82.34,6.89
505,aberdeen,1,US,1556231723,16,45.47,-98.49,66.2,26.4
506,araouane,0,ML,1556231858,14,18.9,-3.53,84.34,10.47
507,roros,15,NO,1556230800,64,62.57,11.38,39.2,3.36
508,athabasca,9,CA,1556231817,19,54.72,-113.29,46.23,11.1
509,san jeronimo,100,PE,1556231859,87,-13.65,-73.37,45.58,3.02
510,kendari,80,ID,1556231859,89,-3.99,122.52,79.41,2.37
511,broome,32,GB,1556231826,87,52.47,1.45,51.01,12.75
512,suntar,42,RU,1556231860,74,62.16,117.65,36.3,4.07
513,kankaanpaa,0,FI,1556231825,50,61.8,22.42,53.6,1.12
514,lazaro cardenas,20,MX,1556231826,16,28.39,-105.62,84.2,6.93
515,burla,2,RU,1556231862,70,53.34,78.33,38.47,11.59
516,tessalit,51,ML,1556231866,10,20.2,1.01,86.66,9.15
517,kralendijk,100,BQ,1556229300,78,12.15,-68.27,82.4,14.99
518,osmaniye,6,TR,1556231856,88,37.07,36.26,63.0,4.0
519,dali,0,CN,1556231868,62,25.6,100.24,56.6,2.35
520,kudahuvadhoo,84,MV,1556231868,76,2.67,72.89,85.67,10.96
521,waitati,6,NZ,1556231569,62,-45.75,170.57,61.0,15.01
522,tigzirt,84,DZ,1556231270,68,36.57,4.2,55.99,4.0
523,mabaruma,100,GY,1556231869,95,8.2,-59.78,74.87,2.53
524,tual,100,ID,1556231870,78,-5.67,132.75,84.82,18.75
525,cuncolim,39,IN,1556231870,74,15.17,73.98,84.16,4.14
526,nukus,0,UZ,1556229600,87,42.46,59.61,46.4,6.93
527,griffith,0,AU,1556231118,82,-34.29,146.06,57.2,5.82
528,tomohon,40,ID,1556229600,100,1.33,124.84,75.2,1.12
529,lagunas,100,PE,1556231871,97,-5.23,-75.68,75.34,2.26
530,komsomolskiy,67,RU,1556231872,97,67.55,63.78,2.08,4.38
531,pochutla,5,MX,1556231489,58,15.74,-96.47,87.01,17.22
532,bahar,40,IR,1556229600,64,34.91,48.44,33.8,2.24
533,ocampo,47,PH,1556231872,70,13.56,123.37,80.49,3.8
534,la tuque,67,CA,1556231873,93,47.44,-72.79,39.3,5.41
535,hovd,0,NO,1556231716,45,63.83,10.7,59.0,9.17
536,abu dhabi,0,AE,1556229600,60,24.47,54.37,71.6,8.05
537,naousa,74,GR,1556231839,99,40.63,22.07,60.01,4.0
538,eisenberg,100,DE,1556231825,55,50.97,11.9,66.0,4.7
539,majenang,71,ID,1556231834,90,-7.3,108.76,74.58,2.8
540,ismailia,0,EG,1556231877,53,30.6,32.27,65.4,10.0
541,barguzin,95,RU,1556231877,56,53.62,109.63,36.94,8.37
542,medak,65,IN,1556231487,40,18.05,78.27,82.99,1.01
543,talnakh,18,RU,1556229600,83,69.49,88.39,-5.81,17.9
544,ola,0,RU,1556231881,66,59.58,151.3,32.21,5.46
545,hailar,0,CN,1556231882,17,49.2,119.7,45.6,5.64
546,gushikawa,1,JP,1556231590,100,26.35,127.87,75.2,12.93
547,chum phae,17,TH,1556231882,43,16.54,102.1,86.93,4.16
548,bathsheba,40,BB,1556229600,74,13.22,-59.52,82.4,14.99
549,dzaoudzi,40,YT,1556229600,83,-12.79,45.27,84.2,14.99
550,evensk,100,RU,1556231883,82,61.92,159.24,31.51,24.87
551,ergani,0,TR,1556230800,75,38.27,39.76,45.0,5.82
552,magistralnyy,100,RU,1556231884,72,56.17,107.45,37.84,5.46
553,ercis,20,TR,1556229000,51,39.03,43.36,39.2,9.17
554,naliya,0,IN,1556231884,75,23.26,68.83,79.75,9.33
555,yeniseysk,87,RU,1556231885,86,58.45,92.17,41.71,10.58
556,utete,100,TZ,1556231885,82,-7.99,38.76,72.91,1.45
